City ID,City,Latitude,Longitude,Temperature (F),Humidity (%),Cloudiness (%),Wind Speed (MPH)
2643490,Lowestoft,52.48,1.75,63.0,96,82,1.01
3354876,Okakarara,-20.58,17.43,48.85,47,0,10.74
4032243,Vaini,-21.2,-175.2,77.0,78,20,6.93
1015776,Bredasdorp,-34.53,20.04,50.0,93,0,2.24
2189343,Kaeo,-35.1,173.78,60.01,3,100,8.01
2173911,Broken Hill,-31.95,141.43,41.0,65,0,6.93
4488232,Roanoke Rapids,36.46,-77.65,91.15,46,1,11.41
58933,Garoowe,8.41,48.48,81.61,47,86,21.52
3443061,Chui,-33.7,-53.46,52.93,80,74,5.41
7671223,Kloulklubed,7.04,134.26,75.2,94,75,5.82
5924351,Clyde River,70.47,-68.59,64.4,55,75,12.75
6089245,Norman Wells,65.28,-126.83,62.6,82,90,10.29
3874787,Punta Arenas,-53.15,-70.92,32.86,74,75,5.82
4030556,Rikitea,-23.12,-134.97,73.47,83,100,4.14
1045114,Inhambane,-23.86,35.38,63.21,76,0,11.14
3419842,Sisimiut,66.94,-53.67,49.78,73,36,5.68
2094342,Kavieng,-2.57,150.8,81.95,70,85,1.97
3430863,Mar del Plata,-38.0,-57.56,55.81,50,0,9.17
3831208,Qaanaaq,77.48,-69.36,44.35,77,81,5.97
3374210,São Filipe,14.9,-24.5,76.39,79,26,10.69
5106841,Albany,42.6,-73.97,77.02,57,97,9.26
1786855,Yatou,37.15,122.38,67.06,93,0,5.3
1529484,Kumul,42.8,93.45,76.95,31,32,4.52
3366880,Hermanus,-34.42,19.23,53.01,74,0,3.0
1631637,Pemangkat,1.17,108.97,77.95,86,100,2.75
5367788,Lompoc,34.64,-120.46,70.11,60,11,5.82
3361934,Saldanha,-33.01,17.94,51.8,66,0,9.78
2108857,Gizo Government Station,-8.1,156.84,81.97,78,87,16.06
2077895,Alice Springs,-23.7,133.88,33.8,64,0,5.82
3833367,Ushuaia,-54.8,-68.3,32.0,89,0,3.36
3418910,Upernavik,72.79,-56.15,45.3,80,20,6.6
2990793,Nemours,48.28,2.69,66.07,82,90,2.24
1714733,Dingle,11.0,122.67,76.51,88,18,2.26
6170031,Tuktoyaktuk,69.45,-133.04,53.6,62,75,12.75
2163355,Hobart,-42.88,147.33,36.23,93,40,1.12
2065594,Mount Isa,-20.73,139.5,53.6,32,0,5.82
2014407,Ulan-Ude,51.83,107.61,53.6,71,40,6.71
2015306,Tiksi,71.69,128.87,36.48,88,12,19.8
5919850,Chapais,49.78,-74.85,64.4,93,90,10.29
610864,Khani,41.96,42.96,75.2,88,90,2.24
5866583,Saint Paul Harbor,57.79,-152.41,57.2,76,90,4.7
932035,Teyateyaneng,-29.15,27.75,37.44,59,0,1.1
2156643,Mount Gambier,-37.83,140.77,33.8,96,10,5.82
2618795,Klaksvík,62.23,-6.59,51.8,93,0,16.11
3894406,Coihueco,-36.62,-71.83,53.38,87,90,12.75
303750,Tall Kayf,37.08,41.07,85.66,15,0,6.87
1255551,Suket,24.65,76.03,85.35,71,16,5.28
2312888,Mbanza-Ngungu,-5.25,14.87,74.1,59,2,3.76
5044290,Saint Anthony,45.02,-93.22,81.63,37,1,11.41
287832,Ibrā’,22.69,58.53,88.0,44,39,2.77
2742416,Barcelos,41.54,-8.62,88.29,35,8,8.05
1512101,Agirish,61.92,63.02,65.21,96,79,3.4
1106677,Bambous Virieux,-20.34,57.76,68.49,77,40,8.05
2120612,Tigil',57.8,158.67,54.93,91,95,6.42
899825,Petauke,-14.24,31.33,51.03,66,0,8.46
305742,Kulu,39.1,33.08,77.45,38,0,10.78
5983720,Iqaluit,63.75,-68.51,53.29,54,75,8.05
2112802,Hasaki,35.73,140.83,64.24,93,75,6.93
6137462,Saint-Augustin,51.23,-58.65,70.65,44,43,17.13
3576994,Cockburn Town,21.46,-71.14,87.8,58,40,14.99
2075265,Busselton,-33.65,115.33,49.01,88,56,10.04
2158767,Mareeba,-17.0,145.43,48.97,74,2,2.08
5855927,Hilo,19.73,-155.09,78.21,65,1,5.82
2027296,Aykhal,66.0,111.5,51.8,76,0,4.47
1804162,Lengshuitan,26.41,111.6,79.66,79,100,5.91
3468020,Camapuã,-19.53,-54.04,88.52,24,52,7.23
4470244,Havelock,34.88,-76.9,83.28,66,94,8.01
3421719,Narsaq,60.92,-46.05,64.4,36,20,8.05
3006414,La Seyne-sur-Mer,43.1,5.88,74.43,63,78,7.0
964432,Port Alfred,-33.59,26.89,57.36,50,3,6.53
1517323,Zhanakorgan,43.91,67.25,87.24,22,0,13.49
3369157,Cape Town,-33.93,18.42,48.11,87,0,3.36
932960,Werda,-25.27,23.28,47.19,45,0,7.05
136702,Dehlorān,32.69,47.27,97.48,12,0,7.78
110690,Faya,18.39,42.45,70.7,49,25,12.75
2071860,Esperance,-33.87,121.9,57.2,100,90,11.41
2206939,Bluff,-46.6,168.33,37.98,88,25,10.45
2171099,Codrington,-38.27,141.97,38.57,92,1,7.78
6185377,Yellowknife,62.46,-114.35,64.96,48,75,5.82
2155415,New Norfolk,-42.78,147.06,35.96,89,8,2.37
3134327,Tonstad,58.66,6.72,57.29,85,99,2.84
2012956,Yerbogachën,61.28,108.01,47.23,90,0,5.93
2038665,Alihe,50.57,123.72,62.71,92,99,0.74
3652764,Puerto Ayora,-0.74,-90.35,73.2,69,20,18.34
2128558,Otofuke,42.99,143.2,57.15,91,97,0.89
2123814,Leningradskiy,69.38,178.42,42.21,90,99,10.56
1819729,Hong Kong,22.29,114.16,81.81,88,100,15.01
3466704,Castro,-24.79,-50.01,61.79,73,90,3.2
3386213,Touros,-5.2,-35.46,77.0,83,75,5.82
964420,Port Elizabeth,-33.92,25.57,41.0,93,27,4.7
5836898,Rock Springs,41.59,-109.2,86.0,10,1,17.22
2017155,Saskylakh,71.92,114.08,46.9,60,100,19.98
2126359,Bykov,47.32,142.55,59.0,93,90,2.24
2121385,Severo-Kuril'sk,50.68,156.12,51.53,91,81,4.0
1507390,Dikson,73.51,80.55,40.71,94,100,3.53
3437088,Curuguaty,-24.47,-55.69,74.66,64,100,3.87
1263752,Māngrol,21.12,70.12,82.4,80,75,3.56
4031574,Provideniya,64.38,-173.3,48.2,81,90,4.47
1492566,Severo-Yeniseyskiy,60.37,93.04,46.76,98,63,9.28
3471451,Arraial do Cabo,-22.97,-42.03,69.8,64,75,6.93
5955902,Fort Nelson,58.81,-122.7,62.6,77,75,2.24
5847486,Kailua,21.4,-157.74,81.21,65,90,8.05
5848280,Kapaa,22.08,-159.32,81.63,74,40,12.75
5880054,Barrow,71.29,-156.79,35.6,80,90,12.75
3423146,Ilulissat,69.22,-51.1,48.2,70,75,5.82
6167817,Torbay,47.67,-52.73,48.45,100,90,19.46
3382160,Cayenne,4.93,-52.33,86.0,70,100,3.36
1855540,Naze,28.37,129.48,78.8,94,75,12.75
6201424,Mataura,-46.19,168.86,28.98,98,21,2.06
2653305,Chatham,51.38,0.53,67.66,65,95,1.01
2514651,Los Llanos de Aridane,28.66,-17.92,71.24,78,20,11.41
1489209,Troitskoye,52.98,84.68,60.94,79,0,4.9
4173838,Spring Hill,28.48,-82.53,92.41,52,20,5.82
1624041,Ternate,0.8,127.4,79.66,77,0,4.14
2070998,Geraldton,-28.77,114.6,57.2,87,90,20.8
2921355,Gengenbach,48.4,8.02,60.58,93,90,2.24
2015701,Taksimo,56.34,114.88,56.91,77,100,3.56
1006984,East London,-33.02,27.91,58.68,42,0,5.39
935215,Saint-Philippe,-21.36,55.77,60.13,72,11,6.93
2654970,Brae,60.4,-1.35,55.4,100,100,14.99
3577430,Road Town,18.42,-64.62,86.61,66,20,8.05
1489822,Tegul'det,57.31,88.17,55.85,92,82,6.15
3412093,Vestmannaeyjar,63.44,-20.27,51.87,90,100,17.74
2097418,Finschhafen,-6.6,147.87,78.94,77,2,9.93
3349580,Chissamba,-12.17,17.33,56.89,36,0,6.44
520552,Nizhniy Odes,63.64,54.86,56.52,96,100,4.36
3372707,Ribeira Grande,38.52,-28.7,73.4,64,75,11.41
2126199,Cherskiy,68.75,161.3,50.09,58,0,3.38
5654391,Glendive,47.11,-104.71,86.5,25,1,3.36
2264557,Ponta do Sol,32.67,-17.1,70.88,69,1,4.7
359783,Assiut,27.18,31.18,86.0,37,0,12.75
1488708,Ubinskoye,55.31,79.68,68.04,94,0,6.42
6121621,Revelstoke,50.98,-118.2,64.4,77,75,4.7
3387786,Serra Talhada,-7.99,-38.3,76.96,63,64,15.48
2173125,Burnie,-41.07,145.92,37.94,82,0,4.0
5146062,Ashland,40.82,-82.27,82.31,66,90,13.87
3108125,Teruel,40.67,-0.67,73.76,31,49,10.29
1528998,Yumen,40.28,97.2,67.24,35,19,3.29
2026861,Berdigestyakh,62.1,126.7,64.56,70,8,3.24
5354943,Half Moon Bay,37.46,-122.43,69.03,72,5,242.71
3347019,Mossamedes,-15.2,12.15,67.69,62,0,1.81
1497210,Novoagansk,61.94,76.66,52.79,74,23,6.04
493463,Shumerlya,55.5,46.41,56.01,94,0,3.2
104515,Makkah al Mukarramah,21.43,39.83,86.11,23,0,4.07
3424607,Tasiilaq,65.61,-37.64,48.2,66,100,13.87
3994667,Nueva Rosita,27.95,-101.22,97.0,38,40,10.0
1855612,Nara,34.69,135.8,70.99,83,75,3.91
6165406,Thompson,55.74,-97.86,60.8,82,75,13.87
1649150,Bengkulu,-3.8,102.27,76.75,87,79,4.25
2084442,Vanimo,-2.67,141.3,77.94,84,57,1.88
934649,Cap Malheureux,-19.98,57.61,66.99,80,4,3.0
780687,Berlevåg,70.86,29.09,53.6,100,100,2.24
1566346,Thai Binh,20.45,106.33,86.0,84,20,9.17
1586443,Ca Mau,9.18,105.15,77.49,90,76,2.06
2294915,Takoradze,4.88,-1.76,74.93,85,86,7.61
3093524,Leszno,51.84,16.57,56.97,80,93,6.82
1223738,Weligama,5.97,80.42,78.21,90,100,5.53
2136825,Isangel,-19.55,169.27,66.2,93,10,4.7
2192362,Christchurch,-43.53,172.63,37.17,100,99,5.19
3374083,Bathsheba,13.22,-59.52,86.0,66,40,14.99
1805987,Jiaozuo,35.24,113.23,74.61,67,96,3.24
510911,Pervomayskiy,53.25,40.29,55.9,87,99,7.63
2803476,Zwönitz,50.63,12.8,53.15,80,31,11.01
5882953,Aklavik,68.22,-135.01,60.8,67,75,6.93
3628473,San Cristobal,7.77,-72.22,91.4,46,40,4.7
2902768,Hof,50.32,11.92,55.65,75,72,4.61
5122534,Jamestown,42.1,-79.24,77.56,88,90,8.05
2644605,Lerwick,60.15,-1.15,55.4,100,100,14.99
2074865,Carnarvon,-24.87,113.63,62.6,100,75,10.29
2246451,Saint-Louis,16.33,-15.0,95.67,34,100,10.31
2122090,Pevek,69.7,170.31,39.0,99,100,5.75
264416,Astakós,38.54,21.08,75.34,88,20,9.17
3893726,Constitución,-35.33,-72.42,54.61,80,100,9.91
1271984,Ettaiyapuram,9.14,77.99,82.63,62,100,17.78
546105,Nikolskoye,59.7,30.79,58.53,67,75,8.95
1295765,Sittwe,20.15,92.9,82.56,82,100,4.34
4020109,Atuona,-9.8,-139.03,79.99,76,0,20.62
1490256,Talnakh,69.49,88.4,48.2,93,40,13.42
5282297,Bethel,41.37,-73.41,74.73,60,90,9.17
1242110,Kalmunai,7.42,81.82,81.46,72,100,1.95
1651103,Atambua,-9.11,124.89,69.46,89,24,4.23
1048364,Chokwé,-24.53,32.98,56.07,83,0,5.23
3393115,Paracuru,-3.41,-39.03,80.01,70,0,15.99
3175096,Laas,46.62,10.7,57.2,67,75,4.7
6301965,Howard Springs,-12.5,131.05,63.59,93,0,3.36
1488167,Ust'-Koksa,50.27,85.61,52.56,77,61,1.25
962367,Richards Bay,-28.78,32.04,56.39,76,0,4.9
3899695,Ancud,-41.87,-73.82,50.92,93,90,12.75
2110227,Butaritari,3.07,172.79,83.01,67,43,9.24
1282256,Hithadhoo,-0.6,73.08,84.33,69,99,4.45
3881102,Machalí,-34.18,-70.67,48.2,87,90,1.12
2610343,Vestmanna,62.16,-7.17,51.8,93,13,16.11
3985710,Cabo San Lucas,22.89,-109.91,89.28,62,5,11.41
2629833,Husavik,66.04,-17.34,51.8,87,90,18.34
1510377,Belyy Yar,53.6,91.39,62.6,72,66,6.71
633221,Uusikaupunki,60.8,21.41,62.6,67,0,3.36
1512019,Aksarka,66.56,67.8,47.55,75,0,1.68
2094144,Kerema,-7.96,145.78,76.03,89,48,3.56
4035715,Avarua,-21.21,-159.78,71.6,73,0,9.17
1880252,Singapore,1.29,103.85,79.68,88,75,1.12
2120591,Tilichiki,60.47,166.1,50.02,100,100,1.54
1161724,Chabahar,25.29,60.64,85.44,82,27,11.7
1633419,Padang,-0.95,100.35,77.13,84,95,7.52
3143034,Farnes,61.32,7.8,60.8,59,40,14.99
2120048,Ust-Nera,64.57,143.2,51.76,61,1,3.91
4955336,Weymouth,42.22,-70.94,70.48,60,100,6.93
2090021,Namatanai,-3.67,152.43,79.05,82,97,3.98
3445026,Vila Velha,-20.33,-40.29,70.75,73,40,9.17
5546220,Saint George,37.1,-113.58,101.88,12,1,12.75
1513087,Nurota,40.56,65.69,80.6,21,0,6.93
2183406,Riwaka,-41.08,173.0,48.99,59,100,1.99
7601762,Bairiki Village,1.33,172.98,82.4,78,75,5.82
474470,Verkhnyaya Toyma,62.23,45.0,57.74,93,2,2.95
2013279,Vostok,46.49,135.88,58.71,97,5,4.09
3448903,São João da Barra,-21.64,-41.05,71.6,68,75,6.93
2641434,Northam,51.03,-4.22,61.02,92,0,8.01
3466165,Cidreira,-30.18,-50.21,54.07,89,100,18.32
2174444,Bowen,-20.02,148.23,48.07,93,40,1.12
1637001,Biak,-0.91,122.88,75.07,83,25,3.02
2806501,Wolgast,54.05,13.77,61.0,71,43,1.01
3703239,Pedasí,7.53,-80.03,83.84,74,100,11.16
1735902,Sibu,2.3,111.82,75.07,94,20,2.24
779622,Havøysund,71.0,24.66,55.4,76,75,1.12
5767918,Pierre,44.37,-100.35,89.02,25,1,5.82
2208248,Kaitangata,-46.28,169.85,39.0,74,10,1.99
2638419,Scarborough,54.28,-0.4,66.33,78,98,1.99
2063036,Port Lincoln,-34.73,135.87,53.01,74,0,7.67
3465228,Coxim,-18.51,-54.76,93.58,18,0,6.42
3662342,São Gabriel da Cachoeira,-0.13,-67.09,87.8,66,40,2.24
2126710,Beringovskiy,63.05,179.32,52.29,78,91,3.91
100926,Umluj,25.02,37.27,83.5,68,0,6.08
1734705,Kuala Terengganu,5.33,103.14,77.0,94,20,3.36
3450063,Santa Maria da Vitória,-13.39,-44.19,83.32,28,61,6.6
6096551,Pangnirtung,66.15,-65.71,60.8,59,20,9.17
2138285,Tadine,-21.55,167.88,68.22,73,64,2.46
3533462,Acapulco de Juárez,16.86,-99.89,89.6,70,40,4.7
3995647,Moctezuma,29.8,-109.67,95.05,34,13,1.77
3571913,Marsh Harbour,26.54,-77.06,83.62,74,0,15.41
1715010,Dicamay,16.76,122.0,74.35,90,98,2.33
4920986,Griffith,41.53,-87.42,79.66,65,40,3.36
878141,Madimba,-10.4,40.33,73.4,64,20,16.11
5563839,Fortuna,40.6,-124.16,61.92,77,1,17.22
1521762,Kurchum,48.57,83.65,68.7,56,16,4.45
4837648,Ledyard Center,41.44,-72.01,71.24,60,1,13.87
3372472,Vila Franca do Campo,37.72,-25.43,69.8,77,75,10.29
3665202,Aripuanã,-9.17,-60.63,95.41,23,0,1.45
3932145,Pisco,-13.7,-76.22,61.3,87,90,3.36
463516,Zharkovskiy,55.85,32.27,52.52,93,53,2.35
609924,Emba,48.83,58.14,84.6,19,0,10.16
2155562,Nelson Bay,-32.72,152.15,53.26,81,90,10.29
2017215,Sangar,63.92,127.47,66.51,52,100,5.37
2119538,Yelizovo,53.19,158.38,53.6,100,90,2.24
2738381,Lata,40.16,-8.33,93.0,32,0,3.0
3698359,Chicama,-7.84,-79.15,70.97,60,8,10.0
4440397,Pascagoula,30.37,-88.56,87.24,66,1,10.29
3894426,Coyhaique,-45.58,-72.07,32.0,86,90,2.24
482432,Tolbazy,54.02,55.88,71.6,68,0,2.24
4946620,Palmer,42.16,-72.33,77.02,44,75,10.29
2630299,Hofn,64.25,-15.21,51.93,86,79,27.49
1272140,Dwārka,22.24,68.97,84.31,76,100,6.06
337010,Gelemso,8.82,40.52,60.28,89,100,5.68
3146487,Raudeberg,61.99,5.14,60.44,77,75,20.8
491029,Solginskiy,61.05,41.34,54.99,95,0,3.42
5856516,‘Āhuimanu,21.44,-157.84,81.57,65,90,8.05
6113406,Prince Rupert,54.32,-130.32,53.6,100,90,3.36
3421765,Nanortalik,60.14,-45.24,51.03,54,51,9.93
3393692,Itarema,-2.92,-39.92,81.27,68,0,14.7
643497,Oulainen,64.27,24.8,62.01,76,0,3.0
5861897,Fairbanks,64.84,-147.72,59.56,82,90,2.84
515687,Olenino,56.21,33.49,53.2,97,99,4.99
5712169,Baker City,44.77,-117.83,85.6,19,1,2.3
5710035,West Wendover,40.74,-114.07,89.6,10,1,8.05
5557293,Sitka,57.05,-135.33,59.0,77,75,10.29
2527087,Tiznit Province,29.58,-9.5,84.97,37,70,13.0
549786,Kholm,59.27,32.85,52.95,96,100,5.46
1507116,Dudinka,69.41,86.18,48.2,87,40,11.18
64435,Berbera,10.44,45.01,90.34,40,37,26.02
2022572,Khatanga,71.97,102.5,50.4,78,100,14.0
1152194,Mae Sai,20.43,99.88,80.6,88,20,5.82
1632694,Pangkalanbuun,-2.68,111.62,73.4,98,14,2.21
2381334,Atar,20.52,-13.05,95.72,18,6,9.53
533418,Lukovetskiy,64.3,41.92,53.6,93,75,4.47
5939236,Digby,44.62,-65.77,68.0,69,69,3.0
3385899,Tutóia,-2.76,-42.27,81.36,72,4,7.43
3354077,Opuwo,-18.06,13.84,58.21,34,0,13.06
2662689,Visby,57.64,18.3,59.86,67,0,4.7
5815136,Washougal,45.58,-122.35,75.79,50,1,3.36
1735106,George Town,5.41,100.34,77.63,94,40,3.36
2360286,Goulouré,12.23,-1.93,78.8,83,20,2.24
209598,Manono,-7.3,27.42,73.4,33,0,7.49
4164092,Merritt Island,28.54,-80.67,88.14,62,75,5.82
2172880,Byron Bay,-28.65,153.62,49.66,71,40,8.05
3421319,Nuuk,64.18,-51.72,59.0,62,20,5.82
3100933,Człuchów,53.67,17.36,57.99,73,89,4.85
3395981,Maceió,-9.67,-35.74,77.0,65,40,13.87
1491230,Sovetskiy,61.36,63.58,70.54,93,51,7.2
2441482,Magaria,13.0,8.91,88.11,47,94,7.54
1337607,Kudahuvadhoo,2.67,72.89,84.54,69,100,4.52
5888001,Atikokan,48.76,-91.62,71.58,51,100,8.5
5972762,Hay River,60.82,-115.8,60.8,72,75,14.99
3462103,Grão Mogol,-16.56,-42.89,69.96,62,18,6.69
286621,Salalah,17.02,54.09,82.4,94,75,6.93
2616504,Nexø,55.06,15.13,60.8,87,54,5.82
3871336,Santiago,-33.46,-70.65,51.8,66,100,2.48
6050066,La Ronge,55.1,-105.28,64.4,63,90,12.75
2191562,Dunedin,-45.87,170.5,39.45,75,46,1.99
217562,Butembo,0.15,29.28,56.64,95,100,2.95
6170799,Tweed,44.48,-77.32,72.32,96,100,5.01
325579,Ziway,7.93,38.72,63.46,83,99,12.46
934322,Mahébourg,-20.41,57.7,69.8,83,75,6.93
1496476,Nyagan,62.14,65.39,65.32,96,100,5.48
2180815,Tuatapere,-46.13,167.68,32.79,95,46,4.0
2449893,Tessalit,20.2,1.01,93.11,29,36,15.88
3141667,Roald,62.58,6.13,61.7,72,75,4.7
2012780,Zabaykal'sk,49.63,117.32,63.88,87,86,6.17
3867427,Mayor Pablo Lagerenza,-19.93,-60.77,84.11,47,93,2.93
1299237,Pyapon,16.28,95.68,79.18,89,100,4.05
986717,Kruisfontein,-34.0,24.73,48.56,56,39,3.94
2507480,Algiers,36.75,3.04,75.2,73,0,17.22
2395182,Bembèrèkè,10.23,2.66,68.5,100,77,4.43
2112444,Kamaishi,39.27,141.88,61.72,83,87,1.66
5697939,North Platte,41.12,-100.77,88.0,55,1,10.29
1276128,Bharatpur,27.22,77.48,93.02,50,84,4.14
1696188,Palauig,15.44,119.9,82.17,73,41,4.61
304183,Bayir,37.27,28.22,76.06,50,0,4.7
1609776,Khon Kaen,16.45,102.83,78.8,88,93,3.36
608271,Shubarkuduk,49.14,56.49,84.13,21,0,10.31
3663503,Manicoré,-5.81,-61.3,91.4,52,99,6.93
1127106,Sar-e Pul,35.83,66.17,71.08,40,98,5.44
607610,Zhangaözen,43.3,52.8,89.92,18,98,21.61
2409914,Bonthe,7.53,-12.51,76.5,78,100,7.43
235826,Zemio,5.03,25.14,70.75,93,100,1.34
933995,Souillac,-20.52,57.52,69.8,77,40,8.05
939676,Willowmore,-33.29,23.49,47.64,41,0,4.14
2160735,Lakes Entrance,-37.88,147.98,46.99,97,35,7.58
1529651,Altay,47.87,88.12,67.46,39,21,8.19
2364752,Notsé,6.95,1.17,75.49,81,100,2.59
3985168,San Patricio,19.22,-104.7,89.6,75,75,11.41
2396518,Port-Gentil,-0.72,8.78,77.0,83,75,13.29
4673258,Beeville,28.4,-97.75,97.07,53,40,16.11
1067565,Beloha,-25.17,45.05,58.6,79,4,6.55
3137469,Sørland,67.67,12.69,57.2,87,40,8.05
1626542,Sorong,-0.88,131.25,78.04,83,0,4.0
3421982,Maniitsoq,65.42,-52.9,46.53,83,9,6.64
1811720,Enshi,30.3,109.48,74.91,88,100,1.34
4011741,Durango,24.83,-104.83,85.23,24,3,11.52
2184707,Wanaka,-44.7,169.15,28.99,84,22,3.0
158321,Karema,-6.82,30.44,71.73,50,5,12.08
107304,Buraidah,26.33,43.98,96.8,19,1,6.93
2025256,Chumikan,54.72,135.31,52.9,96,100,6.91
601734,Daşoguz,41.84,59.97,82.4,37,0,9.17
5922281,Chute-aux-Outardes,49.12,-68.4,66.2,59,20,10.29
4565346,Hatillo,18.49,-66.83,81.0,86,85,1.01
1863310,Hamada,34.88,132.08,69.01,45,10,1.63
3115739,Narón,43.52,-8.15,64.72,64,99,6.93
1153035,Kathu,7.92,98.33,81.55,100,20,1.12
214575,Kampene,-3.6,26.67,72.28,54,27,2.44
2109701,Auki,-8.77,160.7,76.77,78,54,6.26
1174451,Keti Bandar,24.14,67.45,86.27,81,100,13.67
1244926,Hambantota,6.12,81.12,81.84,75,100,17.83
609906,Fort-Shevchenko,44.51,50.26,82.0,68,0,14.79
457955,Liepāja,56.54,21.04,62.6,67,2,3.36
2476660,Tigzirt,36.89,4.12,73.69,76,0,13.73
737021,Zonguldak,41.25,31.83,62.58,94,84,1.41
6620339,Karratha,-20.74,116.85,64.04,64,0,6.78
3833062,Venado Tuerto,-33.75,-61.97,66.99,25,0,1.99
3381428,Iracoubo,5.48,-53.2,82.13,80,100,11.25
2338660,Yaan,7.38,8.57,73.92,93,100,4.92
5975004,High Level,58.52,-117.14,59.0,93,90,5.82
4671800,Azle,32.9,-97.55,98.22,39,20,9.17
2012530,Zhigansk,66.77,123.37,62.26,87,98,11.92
2455216,Kita,13.03,-9.49,72.57,91,100,1.88
10722858,Forsytheganj,52.63,29.73,57.58,78,31,3.83
1062663,Mahajanga,-15.72,46.32,75.2,78,62,2.24
4021858,Guerrero Negro,27.98,-114.06,79.39,48,0,15.82
3911925,La Paz,-16.5,-68.15,62.6,8,40,6.93
1498283,Mugur-Aksy,50.35,90.5,47.46,80,0,4.05
2022143,Khuzhir,53.19,107.34,50.45,72,0,10.98
934479,Grand Gaube,-20.01,57.66,66.99,80,5,3.0
3460087,Jardim,-21.48,-56.14,86.11,32,58,7.18
1495626,Pangody,65.85,74.49,45.19,85,18,4.21
4161461,Lakeside,30.13,-81.77,91.47,59,75,13.87
1511646,Andra,62.51,65.89,63.07,94,100,6.82
3355672,Lüderitz,-26.65,15.16,68.0,22,0,6.93
779683,Hammerfest,70.66,23.68,55.4,76,99,4.7
8079926,Labuhan,-6.88,112.21,76.37,80,0,8.08
2126123,Chokurdakh,70.63,147.92,41.74,91,100,7.05
1737185,Kapit,2.02,112.93,73.08,95,100,1.5
2729907,Longyearbyen,78.22,15.64,44.6,87,75,2.24
1510689,Baykit,61.67,96.37,53.35,87,98,10.29
3695675,La Peca,-5.61,-78.44,78.13,62,38,4.23
3450083,Santa Maria,-29.68,-53.81,50.0,87,75,13.87
2375255,Bafatá,12.17,-14.75,74.34,97,100,5.21
1269158,Jaswantnagar,26.88,78.9,92.93,52,97,10.02
965528,Phalaborwa,-23.94,31.14,53.6,54,0,3.36
2037799,Datong,40.09,113.29,65.91,82,100,5.44
2112309,Katsuura,35.13,140.3,67.23,94,75,3.36
235191,Amudat,1.95,34.95,68.79,79,100,1.81
86049,Jalu,29.03,21.55,86.27,34,0,14.14
1255143,Tālcher,20.95,85.22,81.14,83,96,8.28
2028164,Deputatsky,69.3,139.9,40.24,79,34,1.36
3843123,Neuquén,-38.95,-68.06,48.2,70,75,6.04
1307741,Myitkyina,25.38,97.4,74.86,96,100,1.48
315367,Erzurum Province,40.0,41.5,66.2,55,40,6.93
2450173,Taoudenni,22.68,-3.98,95.65,27,100,13.06
1260548,Pandhāna,21.7,76.22,79.92,86,3,5.77
2400547,Gamba,-2.65,10.0,71.51,91,100,5.86
3013633,Arrondissement du Havre,49.58,0.33,61.48,77,34,6.93
1259385,Port Blair,11.67,92.75,81.0,79,100,8.39
648090,Lieksa,63.32,30.02,55.22,65,0,7.11
1505584,Inskoy,54.43,86.44,61.29,92,79,5.57
3420846,Qaqortoq,60.72,-46.03,64.4,36,20,8.05
1722803,Buluang,13.31,123.34,77.68,89,84,2.46
1511783,Aleysk,52.49,82.78,62.08,93,12,8.97
3230781,Hella,67.2,14.43,60.3,77,75,2.24
1538638,Lokomotivnyy,53.01,60.57,69.96,58,0,7.18
3520994,Puerto Escondido,15.85,-97.07,84.2,74,75,12.75
3416888,Grindavik,63.84,-22.43,48.2,100,90,11.41
1314759,Lashio,22.93,97.75,69.33,99,100,0.85
2083537,Wewak,-3.55,143.63,79.23,80,17,1.86
3457381,Mauá,-23.67,-46.46,66.67,68,27,5.82
4036284,Alofi,-19.06,-169.92,77.0,73,20,10.29
5503914,Fallon,39.47,-118.78,93.09,8,40,3.36
4049979,Birmingham,33.52,-86.8,92.77,52,20,5.82
1282027,Malé,4.17,73.51,84.2,79,75,2.24
1265242,Lakhīmpur,27.95,80.77,87.1,64,5,8.68
1862505,Hirara,24.8,125.28,85.28,82,100,19.42
5815135,Washington,47.5,-120.5,88.32,21,87,7.0
6621033,Grand Falls,47.05,-67.74,70.86,43,1,8.05
1488903,Turukhansk,65.82,87.98,45.88,90,0,15.35
686090,Asău,46.43,26.4,59.0,88,0,5.32
3168633,Salò,45.61,10.53,76.23,69,40,2.24
1337616,Naifaru,5.44,73.37,83.53,79,99,10.02
3463271,Flores da Cunha,-29.03,-51.18,46.0,99,100,4.0
157429,Kilindoni,-7.91,39.67,78.06,67,70,17.94
4231997,Avera,33.19,-82.53,93.06,44,40,6.93
2324767,Potiskum,11.71,11.07,84.4,54,99,12.03
1803886,Lianran,24.92,102.48,67.87,93,75,13.42
1797117,Rongcheng,30.63,117.85,73.53,92,54,1.97
1788852,Xining,36.62,101.77,54.41,79,20,2.37
72181,Marzuq,14.4,46.47,84.42,49,97,3.2
863061,Usinsk,65.99,57.53,54.27,67,94,14.88
1180729,Dalbandin,28.89,64.41,87.46,25,23,7.34
2139521,Noumea,-22.28,166.46,59.0,82,75,2.24
727838,Galabovo,42.14,25.87,73.18,40,20,9.17
1267065,Khānāpur,15.63,74.52,71.2,92,100,13.4
2212775,Sabha,27.04,14.43,90.73,18,0,7.63
5746545,Portland,45.52,-122.68,78.48,53,40,4.7
1808747,Hecun,36.53,114.11,75.34,64,100,6.04
3837056,San Luis,-33.3,-66.34,63.39,30,45,4.18
2033536,Yakeshi,49.28,120.73,63.41,89,56,2.86
3947019,Ayacucho,-13.16,-74.22,68.38,33,12,3.62
3470137,Belmonte,-15.86,-38.88,75.2,69,75,8.05
1214488,Meulaboh,4.14,96.13,76.78,90,100,4.32
4676740,Brownsville,25.9,-97.5,93.61,52,40,18.34
1262062,Naliya,23.27,68.83,84.0,74,45,3.44
2399959,Koulamoutou,-1.13,12.47,72.36,91,100,2.53
5847411,Kahului,20.89,-156.47,79.84,66,40,20.8
1489401,Toora-Khem,52.47,96.11,45.93,79,62,2.24
3883457,Lebu,-37.62,-73.65,53.82,88,100,17.72
964712,Plettenberg Bay,-34.05,23.37,57.83,46,27,5.82
1562414,Vung Tau,10.35,107.08,82.6,77,9,5.73
540761,Kropotkin,45.44,40.58,68.5,76,72,10.42
3393536,Olinda,-8.01,-34.86,78.8,74,40,16.11
1494482,Polunochnoye,60.87,60.42,64.83,99,95,10.36
3466950,Carinhanha,-14.3,-43.77,82.87,28,78,7.27
352628,Maţāy,28.42,30.78,80.04,41,0,18.3
2561668,Santa Cruz,30.42,-9.6,71.6,83,77,13.87
3846915,Libertador General San Martín,-23.81,-64.79,75.58,31,100,4.03
3893629,Coquimbo,-29.95,-71.34,57.2,71,20,5.82
4956335,Yarmouth,41.71,-70.23,68.11,71,85,9.17
2303611,Esim,4.87,-2.24,74.39,88,70,5.59
2448083,Agadez,19.75,10.25,90.0,32,0,10.8
3435038,Dolores,-36.31,-57.68,54.54,66,47,4.72
5554072,Juneau,58.3,-134.42,64.4,68,40,8.05
3664980,Boa Vista,2.82,-60.67,86.0,58,75,12.75
2141305,Fayaoué,-20.65,166.53,69.67,63,0,7.16
3572906,Andros Town,24.7,-77.77,84.2,79,75,11.41
2737088,Oiã,40.54,-8.54,83.88,47,0,1.01
3126369,Carballo,43.21,-8.69,63.75,79,84,5.99
3150639,Kabelvåg,68.21,14.48,58.24,82,100,4.7
3402648,Carutapera,-1.2,-46.02,79.07,88,7,7.02
1566319,Thai Nguyen,21.59,105.84,84.2,83,40,9.17
1651810,Airai,-8.93,125.41,55.99,95,1,2.73
921906,Domoni,-12.26,44.53,74.59,79,61,14.09
2208330,Whakatane,-37.96,176.99,51.28,93,100,1.01
4034551,Faanui,-16.48,-151.75,75.09,88,100,16.15
3467545,Cândido de Abreu,-24.57,-51.33,62.06,71,100,1.43
3664659,Carauari,-4.88,-66.9,91.9,37,91,3.13
2185763,Okato,-39.2,173.88,46.58,78,98,11.01
2392087,Porto-Novo,6.5,2.6,75.2,94,20,9.17
2093967,Kimbe,-5.55,150.14,75.18,88,1,3.87
4255151,Bud,39.45,-86.18,75.4,78,90,6.8
1733782,Labuan,5.28,115.24,77.0,100,20,6.26
3598787,Champerico,14.3,-91.92,91.4,55,40,9.17
2361177,Djibo,14.1,-1.63,88.48,46,0,5.64
305268,Kütahya,39.42,29.98,63.3,67,14,12.75
935214,Saint-Pierre,-21.34,55.48,60.96,72,6,6.93
2122104,Petropavlovsk-Kamchatskiy,53.05,158.65,53.6,100,90,2.24
1540711,Muravlenko,63.79,74.52,50.05,73,47,2.57
6148373,Sioux Lookout,50.1,-91.92,68.0,72,75,12.75
1626703,Soe,-9.86,124.28,63.27,100,58,4.14
2098329,Daru,-9.08,143.21,75.78,85,97,14.41
2634739,Warrington,53.39,-2.58,65.57,72,20,6.93
359792,Aswān,24.09,32.91,89.08,17,0,14.16
2036959,Heishan,41.69,122.11,71.69,86,41,12.24
4513583,Hamilton,39.18,-84.53,86.67,58,75,12.75
5903851,Blind River,46.18,-82.96,78.8,50,1,3.36
1168749,Nushki,29.55,66.02,84.0,17,0,5.06
549266,Khrenovoye,51.12,40.29,57.09,82,0,2.77
286245,Sur,22.57,59.53,85.3,65,4,8.84
3668605,Santa Marta,11.24,-74.2,87.8,70,75,8.05
3461592,Ibipeba,-11.64,-42.01,75.2,49,2,10.76
3421193,Paamiut,61.99,-49.67,44.71,82,25,20.98
2137773,Vao,-22.67,167.48,69.22,63,89,12.84
535839,Leshukonskoye,64.9,45.76,51.66,79,98,6.26
4031637,Lavrentiya,65.58,-171.0,51.04,77,99,3.65
2022773,Khandyga,62.67,135.6,61.21,65,22,2.17
3982287,Teacapan,22.55,-105.75,90.27,54,97,5.95
110690,Abhā,18.22,42.51,70.63,49,22,12.75
1650232,Banjar,-8.19,114.97,77.0,100,20,3.36
2181625,Te Anau,-45.42,167.72,30.13,95,43,0.81
1650434,Bambanglipuro,-7.95,110.28,74.41,90,5,0.76
2016701,Shimanovsk,52.0,127.7,65.35,94,100,3.06
1688781,City of San Pedro,14.35,121.02,82.0,76,1,1.01
207596,Mweka,-4.85,21.57,74.44,44,0,1.19
2094027,Kieta,-6.22,155.63,79.0,80,100,5.93
2542997,Marrakesh,31.63,-8.01,96.8,32,20,10.29
4019827,Acámbaro,20.03,-100.73,80.6,42,75,4.7
3408368,Acaraú,-2.89,-40.12,81.63,68,0,14.45
3379316,Lethem,3.38,-59.8,87.28,62,100,3.98
2270385,Camacha,33.08,-16.33,71.6,73,20,12.75
481548,Troitsko-Pechorsk,62.71,56.2,64.15,98,97,4.97
1847947,Shingū,33.73,135.98,68.86,93,100,7.16
3382226,Camopi,3.17,-52.32,84.25,71,94,2.06
3393471,Oriximiná,-1.77,-55.87,90.1,50,14,6.8
2111884,Miyako,39.64,141.95,60.69,87,87,1.54
778707,Mehamn,71.04,27.85,51.8,93,98,4.7
2134814,Sola,-13.88,167.55,79.52,86,100,16.22
1786657,Yinchuan,38.47,106.27,72.86,60,100,8.81
2514190,Manzanares,39.0,-3.37,86.79,28,0,4.7
6141439,Sault Ste. Marie,46.52,-84.33,81.32,37,1,6.31
3449749,Santa Vitória,-18.84,-50.12,83.05,32,1,8.41
515879,Oktyabr'skiy,54.48,53.47,62.92,91,100,4.47
4032420,Neiafu,-18.65,-173.98,77.0,88,40,8.05
5850554,Makakilo City,21.35,-158.09,82.02,62,75,9.17
2123836,Lazarev,52.23,141.51,56.01,98,100,19.44
5364271,Laguna,38.42,-121.42,83.73,39,1,5.82
103630,Najrān,17.49,44.13,87.8,40,40,16.11
2079582,Alyangula,-13.85,136.42,55.4,93,2,9.08
5314245,Show Low,34.25,-110.03,81.25,28,40,5.82
3903342,Tarata,-17.62,-66.02,82.4,9,0,3.36
3665913,Villa del Rosario,7.83,-72.47,91.4,46,40,4.7
3346821,Ondjiva,-17.07,15.73,57.18,35,0,8.5
2446796,Bilma,18.69,12.92,93.2,30,95,13.0
